---
title:        OSHUG
subtitle:     Open Source Hardware User Group
description:  A group of people with an interest in open source hardware.
uri:          http://oshug.org/
email:        hello@oshug.org
lang:         en-gb
author:       oshug.org
license:
    title:   Creative Commons License
    uri:     http://creativecommons.org/licenses/by/3.0/

introduction: |
    <p>
    A group of people with a shared interest in 
    <a href="http://en.wikipedia.org/wiki/Open-source_hardware">Open Source Hardware</a>, 
    we hold regular meetings in and around London.
    We welcome suggestions for topics and speakers for future events 
    on the <a href="http://oshug.org/cgi-bin/mailman/listinfo/oshug">discussion list</a>.
    </p>

tags:
    - open-source
    - hardware
    - development
    - geek
    - tea

locations:
    Osmosoft:
        uri:       http://www.osmosoft.com/#[[Contact%20us]]
        street:    1a Broadway Street
        locality:  London
        postcode:  SW1H 0AY
        country:   UK
        latitude:  51.498325
        longitude: -0.134347

    London Hackspace:
        uri:       http://london.hackspace.org.uk/
        street:    Unit 24, Cremer Business Centre, 37 Cremer Street
        locality:  London
        postcode:  E2 8HD
        country:   UK
        latitude:  51.530746
        longitude: -0.076218

    BBC White City Media Centre:
        uri:       http://bbc.co.uk/
        street:    201 Wood Lane
        locality:  London
        postcode:  W12 7TQ
        country:   UK
        latitude:  51.513359
        longitude: -0.227874

    Skills Matter:
        uri:       http://skillsmatter.com/
        street:    116-120 Goswell Road
        locality:  London
        postcode:  EC1V 7DP
        country:   UK
        latitude:  51.525335
        longitude: -0.099056

    Centre for Creative Collaboration:
        uri:       http://www.creativecollaboration.org.uk/
        street:    16 Acton Street
        locality:  London
        postcode:  WC1X 9NG
        latitude:  51.529049
        longitude: -0.116436

    School of Engineering and Digital Arts:
        uri:    http://www.eda.kent.ac.uk/
        extendedaddress: Jennison Building
        street: The University of Kent
        locality: Canterbury
        region: Kent
        postcode: CT2 7NT
        latitude: 51.298383
        longitude: 1.064172

feeds:
    - atom

media:
    atom:
        title: Atom
        type: application/atom+xml

    yaml:
        title: YAML
        type: text/yaml;charset=utf-8

    xml:
        title: XML
        type: text/xml;charset=utf-8

    json:
        title: JSON
        type: application/json

    jsonp:
        title: JSONP
        type: application/javascript

# one line per-event
released:
    - 1
    - 2
    - 3
    - 4
    - 5
    - 6
    - 7
    - 8
    - 9
    - 10
    - 11
    - 12
    - oshcamp
    - 13
